[
  { "name": "Addenbrooke's Hospital", "city": "Cambridge", "coords": { "lat": 52.1751, "lon": 0.1433 } },
  { "name": "Aintree University Hospital", "city": "Liverpool", "coords": { "lat": 53.4611, "lon": -2.9367 } },
  { "name": "Alexandra Hospital", "city": "Redditch", "coords": { "lat": 52.2931, "lon": -1.9388 } },
  { "name": "Arrowe Park Hospital", "city": "Wirral", "coords": { "lat": 53.367, "lon": -3.097 } },
  { "name": "Basildon University Hospital", "city": "Basildon", "coords": { "lat": 51.5804, "lon": 0.4571 } },
  { "name": "Basingstoke and North Hampshire Hospital", "city": "Basingstoke", "coords": { "lat": 51.272, "lon": -1.1092 } },
  { "name": "Bassetlaw Hospital", "city": "Worksop", "coords": { "lat": 53.313, "lon": -1.002 } },
  { "name": "Bedford Hospital", "city": "Bedford", "coords": { "lat": 52.131, "lon": -0.473 } },
  { "name": "Birmingham Children's Hospital", "city": "Birmingham", "coords": { "lat": 52.486, "lon": -1.892 } },
  { "name": "Birmingham Heartlands Hospital", "city": "Birmingham", "coords": { "lat": 52.483, "lon": -1.833 } },
  { "name": "Birmingham Women's Hospital", "city": "Birmingham", "coords": { "lat": 52.451, "lon": -1.937 } },
  { "name": "Blackpool Victoria Hospital", "city": "Blackpool", "coords": { "lat": 53.824, "lon": -3.008 } },
  { "name": "Bradford Royal Infirmary", "city": "Bradford", "coords": { "lat": 53.805, "lon": -1.785 } },
  { "name": "Broomfield Hospital", "city": "Chelmsford", "coords": { "lat": 51.765, "lon": 0.475 } },
  { "name": "Buckland Hospital", "city": "Dover", "coords": { "lat": 51.137, "lon": 1.296 } },
  { "name": "Calderdale Royal Hospital", "city": "Halifax", "coords": { "lat": 53.71, "lon": -1.841 } },
  { "name": "Castle Hill Hospital", "city": "Cottingham", "coords": { "lat": 53.774, "lon": -0.443 } },
  { "name": "Cavendish Hospital", "city": "Buxton", "coords": { "lat": 53.262, "lon": -1.912 } },
  { "name": "Central Middlesex Hospital", "city": "London", "coords": { "lat": 51.536, "lon": -0.28 } },
  { "name": "Chase Farm Hospital", "city": "London", "coords": { "lat": 51.66, "lon": -0.118 } },
  { "name": "Chelsea and Westminster Hospital", "city": "London", "coords": { "lat": 51.483, "lon": -0.184 } },
  { "name": "Cheltenham General Hospital", "city": "Cheltenham", "coords": { "lat": 51.893, "lon": -2.072 } },
  { "name": "Chesterfield Royal Hospital", "city": "Chesterfield", "coords": { "lat": 53.25, "lon": -1.385 } },
  { "name": "Chorley and South Ribble Hospital", "city": "Chorley", "coords": { "lat": 53.66, "lon": -2.639 } },
  { "name": "Christchurch Hospital", "city": "Christchurch", "coords": { "lat": 50.738, "lon": -1.765 } },
  { "name": "City Hospital", "city": "Birmingham", "coords": { "lat": 52.493, "lon": -1.928 } },
  { "name": "Clacton Hospital", "city": "Clacton-on-Sea", "coords": { "lat": 51.796, "lon": 1.141 } },
  { "name": "Colchester Hospital", "city": "Colchester", "coords": { "lat": 51.899, "lon": 0.865 } },
  { "name": "Conquest Hospital", "city": "St Leonards-on-Sea", "coords": { "lat": 50.88, "lon": 0.551 } },
  { "name": "Countess of Chester Hospital", "city": "Chester", "coords": { "lat": 53.208, "lon": -2.89 } },
  { "name": "Coventry Hospital", "city": "Coventry", "coords": { "lat": 52.38, "lon": -1.43 } },
  { "name": "Croydon University Hospital", "city": "Thornton Heath", "coords": { "lat": 51.396, "lon": -0.12 } },
  { "name": "Darlington Memorial Hospital", "city": "Darlington", "coords": { "lat": 54.53, "lon": -1.568 } },
  { "name": "Darent Valley Hospital", "city": "Dartford", "coords": { "lat": 51.44, "lon": 0.252 } },
  { "name": "Derriford Hospital", "city": "Plymouth", "coords": { "lat": 50.416, "lon": -4.122 } },
  { "name": "Diana, Princess of Wales Hospital", "city": "Grimsby", "coords": { "lat": 53.565, "lon": -0.108 } },
  { "name": "Doncaster Royal Infirmary", "city": "Doncaster", "coords": { "lat": 53.525, "lon": -1.118 } },
  { "name": "Dorset County Hospital", "city": "Dorchester", "coords": { "lat": 50.713, "lon": -2.448 } },
  { "name": "Ealing Hospital", "city": "Southall", "coords": { "lat": 51.51, "lon": -0.36 } },
  { "name": "East Surrey Hospital", "city": "Redhill", "coords": { "lat": 51.23, "lon": -0.13 } },
  { "name": "Eastbourne District General Hospital", "city": "Eastbourne", "coords": { "lat": 50.78, "lon": 0.27 } },
  { "name": "Epsom Hospital", "city": "Epsom", "coords": { "lat": 51.33, "lon": -0.25 } },
  { "name": "Essex County Hospital", "city": "Colchester", "coords": { "lat": 51.89, "lon": 0.9 } },
  { "name": "Evelina London Children's Hospital", "city": "London", "coords": { "lat": 51.50, "lon": -0.11 } },
  { "name": "Fairfield General Hospital", "city": "Bury", "coords": { "lat": 53.6, "lon": -2.26 } },
  { "name": "Frimley Park Hospital", "city": "Frimley", "coords": { "lat": 51.31, "lon": -0.74 } },
  { "name": "Furness General Hospital", "city": "Barrow-in-Furness", "coords": { "lat": 54.13, "lon": -3.21 } },
  { "name": "George Eliot Hospital", "city": "Nuneaton", "coords": { "lat": 52.51, "lon": -1.45 } },
  { "name": "Gloucestershire Royal Hospital", "city": "Gloucester", "coords": { "lat": 51.86, "lon": -2.26 } },
  { "name": "Good Hope Hospital", "city": "Sutton Coldfield", "coords": { "lat": 52.57, "lon": -1.81 } },
  { "name": "Goole and District Hospital", "city": "Goole", "coords": { "lat": 53.7, "lon": -0.88 } },
  { "name": "Great Ormond Street Hospital", "city": "London", "coords": { "lat": 51.52, "lon": -0.12 } },
  { "name": "Great Western Hospital", "city": "Swindon", "coords": { "lat": 51.55, "lon": -1.73 } },
  { "name": "Grimsby Hospital", "city": "Grimsby", "coords": { "lat": 53.56, "lon": -0.1 } },
  { "name": "Guisborough Hospital", "city": "Guisborough", "coords": { "lat": 54.53, "lon": -1.05 } },
  { "name": "Guy's Hospital", "city": "London", "coords": { "lat": 51.5, "lon": -0.09 } },
  { "name": "Halstead Hospital", "city": "Halstead", "coords": { "lat": 51.94, "lon": 0.63 } },
  { "name": "Hammersmith Hospital", "city": "London", "coords": { "lat": 51.51, "lon": -0.25 } },
  { "name": "Harefield Hospital", "city": "Harefield", "coords": { "lat": 51.6, "lon": -0.48 } },
  { "name": "Harrogate District Hospital", "city": "Harrogate", "coords": { "lat": 53.99, "lon": -1.52 } },
  { "name": "Harwich Hospital", "city": "Harwich", "coords": { "lat": 51.94, "lon": 1.27 } },
  { "name": "Hereford County Hospital", "city": "Hereford", "coords": { "lat": 52.06, "lon": -2.7 } },
  { "name": "Herts and Essex Hospital", "city": "Bishop's Stortford", "coords": { "lat": 51.87, "lon": 0.16 } },
  { "name": "Huddersfield Royal Infirmary", "city": "Huddersfield", "coords": { "lat": 53.65, "lon": -1.81 } },
  { "name": "Hull Royal Infirmary", "city": "Hull", "coords": { "lat": 53.74, "lon": -0.35 } },
  { "name": "Ipswich Hospital", "city": "Ipswich", "coords": { "lat": 52.04, "lon": 1.17 } },
  { "name": "James Cook University Hospital", "city": "Middlesbrough", "coords": { "lat": 54.55, "lon": -1.22 } },
  { "name": "James Paget University Hospital", "city": "Great Yarmouth", "coords": { "lat": 52.57, "lon": 1.72 } },
  { "name": "John Radcliffe Hospital", "city": "Oxford", "coords": { "lat": 51.76, "lon": -1.22 } },
  { "name": "Kent and Canterbury Hospital", "city": "Canterbury", "coords": { "lat": 51.27, "lon": 1.09 } },
  { "name": "Kettering General Hospital", "city": "Kettering", "coords": { "lat": 52.4, "lon": -0.73 } },
  { "name": "King George Hospital", "city": "Ilford", "coords": { "lat": 51.58, "lon": 0.1 } },
  { "name": "King's College Hospital", "city": "London", "coords": { "lat": 51.47, "lon": -0.09 } },
  { "name": "King's Mill Hospital", "city": "Sutton-in-Ashfield", "coords": { "lat": 53.13, "lon": -1.22 } },
  { "name": "Kingston Hospital", "city": "Kingston upon Thames", "coords": { "lat": 51.41, "lon": -0.28 } },
  { "name": "Leighton Hospital", "city": "Crewe", "coords": { "lat": 53.11, "lon": -2.48 } },
  { "name": "Lewisham Hospital", "city": "London", "coords": { "lat": 51.45, "lon": -0.01 } },
  { "name": "Lincoln County Hospital", "city": "Lincoln", "coords": { "lat": 53.23, "lon": -0.52 } },
  { "name": "Lister Hospital", "city": "Stevenage", "coords": { "lat": 51.91, "lon": -0.22 } },
  { "name": "Liverpool Heart and Chest Hospital", "city": "Liverpool", "coords": { "lat": 53.4, "lon": -2.87 } },
  { "name": "Liverpool Women's Hospital", "city": "Liverpool", "coords": { "lat": 53.39, "lon": -2.95 } },
  { "name": "Luton and Dunstable University Hospital", "city": "Luton", "coords": { "lat": 51.87, "lon": -0.45 } },
  { "name": "Macclesfield District General Hospital", "city": "Macclesfield", "coords": { "lat": 53.26, "lon": -2.14 } },
  { "name": "Maidstone Hospital", "city": "Maidstone", "coords": { "lat": 51.28, "lon": 0.48 } },
  { "name": "Manchester Royal Infirmary", "city": "Manchester", "coords": { "lat": 53.46, "lon": -2.22 } },
  { "name": "Manor Hospital", "city": "Walsall", "coords": { "lat": 52.59, "lon": -1.99 } },
  { "name": "Medway Maritime Hospital", "city": "Gillingham", "coords": { "lat": 51.39, "lon": 0.55 } },
  { "name": "Milton Keynes University Hospital", "city": "Milton Keynes", "coords": { "lat": 52.02, "lon": -0.73 } },
  { "name": "Moorgate Primary Care Centre", "city": "Bury", "coords": { "lat": 53.59, "lon": -2.29 } },
  { "name": "Morriston Hospital", "city": "Swansea", "coords": { "lat": 51.66, "lon": -3.93 } },
  { "name": "Mount Vernon Hospital", "city": "Northwood", "coords": { "lat": 51.61, "lon": -0.43 } },
  { "name": "New Cross Hospital", "city": "Wolverhampton", "coords": { "lat": 52.6, "lon": -2.09 } },
  { "name": "Newark Hospital", "city": "Newark-on-Trent", "coords": { "lat": 53.08, "lon": -0.81 } },
  { "name": "Norfolk and Norwich University Hospital", "city": "Norwich", "coords": { "lat": 52.61, "lon": 1.22 } },
  { "name": "North Middlesex University Hospital", "city": "London", "coords": { "lat": 51.61, "lon": -0.07 } },
  { "name": "Northampton General Hospital", "city": "Northampton", "coords": { "lat": 52.23, "lon": -0.88 } },
  { "name": "Northern General Hospital", "city": "Sheffield", "coords": { "lat": 53.41, "lon": -1.46 } },
  { "name": "Northwick Park Hospital", "city": "Harrow", "coords": { "lat": 51.57, "lon": -0.31 } },
  { "name": "Nottingham City Hospital", "city": "Nottingham", "coords": { "lat": 52.98, "lon": -1.16 } },
  { "name": "Nuffield Orthopaedic Centre", "city": "Oxford", "coords": { "lat": 51.75, "lon": -1.22 } },
  { "name": "Ormskirk and District General Hospital", "city": "Ormskirk", "coords": { "lat": 53.56, "lon": -2.87 } },
  { "name": "Papworth Hospital", "city": "Cambridge", "coords": { "lat": 52.23, "lon": -0.04 } },
  { "name": "Peterborough City Hospital", "city": "Peterborough", "coords": { "lat": 52.57, "lon": -0.29 } },
  { "name": "Pilgrim Hospital", "city": "Boston", "coords": { "lat": 52.98, "lon": -0.05 } },
  { "name": "Pinderfields Hospital", "city": "Wakefield", "coords": { "lat": 53.69, "lon": -1.47 } },
  { "name": "Poole Hospital", "city": "Poole", "coords": { "lat": 50.72, "lon": -1.96 } },
  { "name": "Princess Alexandra Hospital", "city": "Harlow", "coords": { "lat": 51.77, "lon": 0.08 } },
  { "name": "Princess Royal Hospital", "city": "Telford", "coords": { "lat": 52.69, "lon": -2.48 } },
  { "name": "Princess Royal University Hospital", "city": "Orpington", "coords": { "lat": 51.37, "lon": 0.07 } },
  { "name": "Queen Alexandra Hospital", "city": "Portsmouth", "coords": { "lat": 50.84, "lon": -1.06 } },
  { "name": "Queen Elizabeth Hospital", "city": "Birmingham", "coords": { "lat": 52.45, "lon": -1.94 } },
  { "name": "Queen Elizabeth Hospital, Gateshead", "city": "Gateshead", "coords": { "lat": 54.95, "lon": -1.62 } },
  { "name": "Queen Elizabeth The Queen Mother Hospital", "city": "Margate", "coords": { "lat": 51.37, "lon": 1.37 } },
  { "name": "Queen's Hospital", "city": "Romford", "coords": { "lat": 51.56, "lon": 0.19 } },
  { "name": "Queen's Medical Centre", "city": "Nottingham", "coords": { "lat": 52.94, "lon": -1.18 } },
  { "name": "Reading Hospital", "city": "Reading", "coords": { "lat": 51.45, "lon": -0.95 } },
  { "name": "Rochdale Infirmary", "city": "Rochdale", "coords": { "lat": 53.61, "lon": -2.16 } },
  { "name": "Rotherham Hospital", "city": "Rotherham", "coords": { "lat": 53.42, "lon": -1.33 } },
  { "name": "Royal Albert Edward Infirmary", "city": "Wigan", "coords": { "lat": 53.54, "lon": -2.64 } },
  { "name": "Royal Berkshire Hospital", "city": "Reading", "coords": { "lat": 51.45, "lon": -0.95 } },
  { "name": "Royal Blackburn Hospital", "city": "Blackburn", "coords": { "lat": 53.73, "lon": -2.46 } },
  { "name": "Royal Bolton Hospital", "city": "Farnworth", "coords": { "lat": 53.55, "lon": -2.43 } },
  { "name": "Royal Bournemouth Hospital", "city": "Bournemouth", "coords": { "lat": 50.74, "lon": -1.82 } },
  { "name": "Royal Brompton Hospital", "city": "London", "coords": { "lat": 51.49, "lon": -0.17 } },
  { "name": "Royal Cornwall Hospital", "city": "Truro", "coords": { "lat": 50.26, "lon": -5.08 } },
  { "name": "Royal Derby Hospital", "city": "Derby", "coords": { "lat": 52.91, "lon": -1.51 } },
  { "name": "Royal Devon and Exeter Hospital", "city": "Exeter", "coords": { "lat": 50.71, "lon": -3.51 } },
  { "name": "Royal Free Hospital", "city": "London", "coords": { "lat": 51.55, "lon": -0.16 } },
  { "name": "Royal Glamorgan Hospital", "city": "Llantrisant", "coords": { "lat": 51.54, "lon": -3.36 } },
  { "name": "Royal Gwent Hospital", "city": "Newport", "coords": { "lat": 51.58, "lon": -2.99 } },
  { "name": "Royal Hallamshire Hospital", "city": "Sheffield", "coords": { "lat": 53.37, "lon": -1.49 } },
  { "name": "Royal Hampshire County Hospital", "city": "Winchester", "coords": { "lat": 51.06, "lon": -1.32 } },
  { "name": "Royal Lancaster Infirmary", "city": "Lancaster", "coords": { "lat": 54.04, "lon": -2.79 } },
  { "name": "Royal Liverpool University Hospital", "city": "Liverpool", "coords": { "lat": 53.4, "lon": -2.96 } },
  { "name": "Royal London Hospital", "city": "London", "coords": { "lat": 51.51, "lon": -0.06 } },
  { "name": "Royal Manchester Children's Hospital", "city": "Manchester", "coords": { "lat": 53.46, "lon": -2.23 } },
  { "name": "Royal Marsden Hospital", "city": "London", "coords": { "lat": 51.49, "lon": -0.17 } },
  { "name": "Royal National Orthopaedic Hospital", "city": "Stanmore", "coords": { "lat": 51.62, "lon": -0.32 } },
  { "name": "Royal Oldham Hospital", "city": "Oldham", "coords": { "lat": 53.55, "lon": -2.12 } },
  { "name": "Royal Papworth Hospital", "city": "Cambridge", "coords": { "lat": 52.17, "lon": 0.14 } },
  { "name": "Royal Preston Hospital", "city": "Preston", "coords": { "lat": 53.79, "lon": -2.7 } },
  { "name": "Royal Shrewsbury Hospital", "city": "Shrewsbury", "coords": { "lat": 52.7, "lon": -2.79 } },
  { "name": "Royal Stoke University Hospital", "city": "Stoke-on-Trent", "coords": { "lat": 52.99, "lon": -2.17 } },
  { "name": "Royal Surrey County Hospital", "city": "Guildford", "coords": { "lat": 51.24, "lon": -0.6 } },
  { "name": "Royal Sussex County Hospital", "city": "Brighton", "coords": { "lat": 50.82, "lon": -0.12 } },
  { "name": "Royal United Hospital", "city": "Bath", "coords": { "lat": 51.39, "lon": -2.39 } },
  { "name": "Russells Hall Hospital", "city": "Dudley", "coords": { "lat": 52.5, "lon": -2.11 } },
  { "name": "Salford Royal Hospital", "city": "Salford", "coords": { "lat": 53.48, "lon": -2.32 } },
  { "name": "Salisbury District Hospital", "city": "Salisbury", "coords": { "lat": 51.05, "lon": -1.79 } },
  { "name": "Sandwell General Hospital", "city": "West Bromwich", "coords": { "lat": 52.53, "lon": -1.99 } },
  { "name": "Scarborough Hospital", "city": "Scarborough", "coords": { "lat": 54.28, "lon": -0.42 } },
  { "name": "Scunthorpe General Hospital", "city": "Scunthorpe", "coords": { "lat": 53.58, "lon": -0.67 } },
  { "name": "Sheffield Children's Hospital", "city": "Sheffield", "coords": { "lat": 53.38, "lon": -1.48 } },
  { "name": "Sheffield Teaching Hospitals", "city": "Sheffield", "coords": { "lat": 53.38, "lon": -1.49 } },
  { "name": "Solihull Hospital", "city": "Solihull", "coords": { "lat": 52.41, "lon": -1.76 } },
  { "name": "Southampton General Hospital", "city": "Southampton", "coords": { "lat": 50.93, "lon": -1.43 } },
  { "name": "Southend University Hospital", "city": "Westcliff-on-Sea", "coords": { "lat": 51.54, "lon": 0.68 } },
  { "name": "Southmead Hospital", "city": "Bristol", "coords": { "lat": 51.49, "lon": -2.59 } },
  { "name": "Southport and Formby District General Hospital", "city": "Southport", "coords": { "lat": 53.63, "lon": -2.97 } },
  { "name": "St Bartholomew's Hospital", "city": "London", "coords": { "lat": 51.51, "lon": -0.1 } },
  { "name": "St George's Hospital", "city": "London", "coords": { "lat": 51.42, "lon": -0.17 } },
  { "name": "St Helens Hospital", "city": "St Helens", "coords": { "lat": 53.45, "lon": -2.75 } },
  { "name": "St Helier Hospital", "city": "Carshalton", "coords": { "lat": 51.37, "lon": -0.18 } },
  { "name": "St James's University Hospital", "city": "Leeds", "coords": { "lat": 53.81, "lon": -1.52 } },
  { "name": "St Mary's Hospital", "city": "London", "coords": { "lat": 51.51, "lon": -0.17 } },
  { "name": "St Peter's Hospital", "city": "Chertsey", "coords": { "lat": 51.38, "lon": -0.5 } },
  { "name": "St Richard's Hospital", "city": "Chichester", "coords": { "lat": 50.83, "lon": -0.79 } },
  { "name": "St Thomas' Hospital", "city": "London", "coords": { "lat": 51.5, "lon": -0.11 } },
  { "name": "Stafford Hospital", "city": "Stafford", "coords": { "lat": 52.8, "lon": -2.1 } },
  { "name": "Stepping Hill Hospital", "city": "Stockport", "coords": { "lat": 53.39, "lon": -2.13 } },
  { "name": "Stoke Mandeville Hospital", "city": "Aylesbury", "coords": { "lat": 51.8, "lon": -0.8 } },
  { "name": "Sunderland Royal Hospital", "city": "Sunderland", "coords": { "lat": 54.9, "lon": -1.4 } },
  { "name": "Tameside General Hospital", "city": "Ashton-under-Lyne", "coords": { "lat": 53.48, "lon": -2.08 } },
  { "name": "The Christie", "city": "Manchester", "coords": { "lat": 53.43, "lon": -2.23 } },
  { "name": "The Royal Marsden", "city": "London", "coords": { "lat": 51.49, "lon": -0.17 } },
  { "name": "Torbay Hospital", "city": "Torquay", "coords": { "lat": 50.48, "lon": -3.55 } },
  { "name": "Trafford General Hospital", "city": "Manchester", "coords": { "lat": 53.44, "lon": -2.33 } },
  { "name": "Tunbridge Wells Hospital", "city": "Tunbridge Wells", "coords": { "lat": 51.15, "lon": 0.27 } },
  { "name": "University College Hospital", "city": "London", "coords": { "lat": 51.52, "lon": -0.13 } },
  { "name": "University Hospital of Hartlepool", "city": "Hartlepool", "coords": { "lat": 54.68, "lon": -1.23 } },
  { "name": "University Hospital of North Durham", "city": "Durham", "coords": { "lat": 54.79, "lon": -1.59 } },
  { "name": "University Hospital of North Tees", "city": "Stockton-on-Tees", "coords": { "lat": 54.58, "lon": -1.33 } },
  { "name": "Victoria Hospital", "city": "Wimborne", "coords": { "lat": 50.8, "lon": -1.98 } },
  { "name": "Walsall Manor Hospital", "city": "Walsall", "coords": { "lat": 52.59, "lon": -1.99 } },
  { "name": "Walton Hospital", "city": "Chesterfield", "coords": { "lat": 53.22, "lon": -1.45 } },
  { "name": "Warrington Hospital", "city": "Warrington", "coords": { "lat": 53.4, "lon": -2.58 } },
  { "name": "Warwick Hospital", "city": "Warwick", "coords": { "lat": 52.28, "lon": -1.57 } },
  { "name": "Watford General Hospital", "city": "Watford", "coords": { "lat": 51.65, "lon": -0.4 } },
  { "name": "West Middlesex University Hospital", "city": "Isleworth", "coords": { "lat": 51.47, "lon": -0.33 } },
  { "name": "West Suffolk Hospital", "city": "Bury St Edmunds", "coords": { "lat": 52.24, "lon": 0.7 } },
  { "name": "Weston General Hospital", "city": "Weston-super-Mare", "coords": { "lat": 51.33, "lon": -2.95 } },
  { "name": "Wexham Park Hospital", "city": "Slough", "coords": { "lat": 51.52, "lon": -0.6 } },
  { "name": "Whipps Cross University Hospital", "city": "London", "coords": { "lat": 51.58, "lon": 0 } },
  { "name": "Whiston Hospital", "city": "Prescot", "coords": { "lat": 53.41, "lon": -2.8 } },
  { "name": "William Harvey Hospital", "city": "Ashford", "coords": { "lat": 51.13, "lon": 1.01 } },
  { "name": "Worcestershire Royal Hospital", "city": "Worcester", "coords": { "lat": 52.18, "lon": -2.19 } },
  { "name": "Worthing Hospital", "city": "Worthing", "coords": { "lat": 50.81, "lon": -0.36 } },
  { "name": "Wythenshawe Hospital", "city": "Manchester", "coords": { "lat": 53.39, "lon": -2.28 } },
  { "name": "Yeovil District Hospital", "city": "Yeovil", "coords": { "lat": 50.94, "lon": -2.62 } },
  { "name": "York Hospital", "city": "York", "coords": { "lat": 53.96, "lon": -1.09 } },
  { "name": "Barnet Hospital", "city": "Barnet", "coords": { "lat": 51.65, "lon": -0.19 } },
  { "name": "Bridlington Hospital", "city": "Bridlington", "coords": { "lat": 54.09, "lon": -0.2 } },
  { "name": "Epsom General Hospital", "city": "Epsom", "coords": { "lat": 51.33, "lon": -0.25 } },
  { "name": "Grantham and District Hospital", "city": "Grantham", "coords": { "lat": 52.91, "lon": -0.63 } },
  { "name": "Hinchingbrooke Hospital", "city": "Huntingdon", "coords": { "lat": 52.32, "lon": -0.2 } },
  { "name": "Homerton University Hospital", "city": "London", "coords": { "lat": 51.55, "lon": -0.04 } },
  { "name": "Leicester General Hospital", "city": "Leicester", "coords": { "lat": 52.63, "lon": -1.08 } },
  { "name": "Leicester Royal Infirmary", "city": "Leicester", "coords": { "lat": 52.62, "lon": -1.13 } },
  { "name": "Leigh Infirmary", "city": "Leigh", "coords": { "lat": 53.5, "lon": -2.52 } },
  { "name": "Lymington New Forest Hospital", "city": "Lymington", "coords": { "lat": 50.76, "lon": -1.54 } },
  { "name": "Macclesfield District General", "city": "Macclesfield", "coords": { "lat": 53.26, "lon": -2.14 } },
  { "name": "Malton, Norton and District Hospital", "city": "Malton", "coords": { "lat": 54.13, "lon": -0.79 } },
  { "name": "Mexborough Montagu Hospital", "city": "Mexborough", "coords": { "lat": 53.49, "lon": -1.27 } },
  { "name": "North Devon District Hospital", "city": "Barnstaple", "coords": { "lat": 51.08, "lon": -4.04 } },
  { "name": "Pontefract General Infirmary", "city": "Pontefract", "coords": { "lat": 53.69, "lon": -1.3 } },
  { "name": "Queen Elizabeth Hospital", "city": "King's Lynn", "coords": { "lat": 52.76, "lon": 0.44 } },
  { "name": "Retford Hospital", "city": "Retford", "coords": { "lat": 53.32, "lon": -0.94 } },
  { "name": "Royal Albert Infirmary", "city": "Lancaster", "coords": { "lat": 54.04, "lon": -2.79 } },
  { "name": "Selby War Memorial Hospital", "city": "Selby", "coords": { "lat": 53.78, "lon": -1.06 } },
  { "name": "St Luke's Hospital", "city": "Market Harborough", "coords": { "lat": 52.48, "lon": -0.92 } },
  { "name": "Stroud General Hospital", "city": "Stroud", "coords": { "lat": 51.74, "lon": -2.21 } },
  { "name": "The Alfred", "city": "Melbourne", "coords": { "lat": -37.84, "lon": 144.98 } },
  { "name": "The Children's Hospital at Westmead", "city": "Westmead", "coords": { "lat": -33.8, "lon": 150.99 } },
  { "name": "The Royal Children's Hospital", "city": "Melbourne", "coords": { "lat": -37.8, "lon": 144.95 } },
  { "name": "The Royal Melbourne Hospital", "city": "Melbourne", "coords": { "lat": -37.8, "lon": 144.95 } },
  { "name": "The St George Hospital", "city": "Kogarah", "coords": { "lat": -33.96, "lon": 151.13 } },
  { "name": "The Townsville Hospital", "city": "Douglas", "coords": { "lat": -19.3, "lon": 146.76 } },
  { "name": "University Hospital Lewisham", "city": "London", "coords": { "lat": 51.45, "lon": -0.01 } },
  { "name": "West Cumberland Hospital", "city": "Whitehaven", "coords": { "lat": 54.53, "lon": -3.58 } },
  { "name": "West Middlesex Hospital", "city": "Isleworth", "coords": { "lat": 51.47, "lon": -0.33 } },
  { "name": "Westminster Memorial Hospital", "city": "Shaftesbury", "coords": { "lat": 51.0, "lon": -2.2 } },
  { "name": "Weston Park Hospital", "city": "Sheffield", "coords": { "lat": 53.38, "lon": -1.49 } },
  { "name": "Whitby Hospital", "city": "Whitby", "coords": { "lat": 54.48, "lon": -0.62 } },
  { "name": "Whittington Hospital", "city": "London", "coords": { "lat": 51.56, "lon": -0.13 } },
  { "name": "Wigan Infirmary", "city": "Wigan", "coords": { "lat": 53.54, "lon": -2.64 } },
  { "name": "Winchcombe Medical Centre", "city": "Winchcombe", "coords": { "lat": 51.95, "lon": -1.96 } },
  { "name": "Winchcombe Hospital", "city": "Winchcombe", "coords": { "lat": 51.95, "lon": -1.96 } },
  { "name": "Withington Community Hospital", "city": "Manchester", "coords": { "lat": 53.42, "lon": -2.23 } },
  { "name": "Woking Community Hospital", "city": "Woking", "coords": { "lat": 51.31, "lon": -0.55 } },
  { "name": "Workington Community Hospital", "city": "Workington", "coords": { "lat": 54.64, "lon": -3.54 } },
  { "name": "Wotton-under-Edge Hospital", "city": "Wotton-under-Edge", "coords": { "lat": 51.63, "lon": -2.35 } },
  { "name": "Wrexham Maelor Hospital", "city": "Wrexham", "coords": { "lat": 53.04, "lon": -2.99 } },
  { "name": "Wycombe Hospital", "city": "High Wycombe", "coords": { "lat": 51.62, "lon": -0.75 } },
  { "name": "Yeatman Hospital", "city": "Sherborne", "coords": { "lat": 50.95, "lon": -2.51 } },
  { "name": "Ystradgynlais Community Hospital", "city": "Ystradgynlais", "coords": { "lat": 51.77, "lon": -3.77 } },
  { "name": "Barnsley Hospital", "city": "Barnsley", "coords": { "lat": 53.55, "lon": -1.46 } },
  { "name": "Bishop Auckland Hospital", "city": "Bishop Auckland", "coords": { "lat": 54.66, "lon": -1.67 } },
  { "name": "Corbett Hospital", "city": "Stourbridge", "coords": { "lat": 52.46, "lon": -2.14 } },
  { "name": "Dewsbury and District Hospital", "city": "Dewsbury", "coords": { "lat": 53.69, "lon": -1.61 } },
  { "name": "Evesham Community Hospital", "city": "Evesham", "coords": { "lat": 52.09, "lon": -1.94 } },
  { "name": "Friarage Hospital", "city": "Northallerton", "coords": { "lat": 54.33, "lon": -1.43 } },
  { "name": "Glenfield Hospital", "city": "Leicester", "coords": { "lat": 52.64, "lon": -1.18 } },
  { "name": "Goole District Hospital", "city": "Goole", "coords": { "lat": 53.7, "lon": -0.88 } },
  { "name": "Harwich and District Hospital", "city": "Harwich", "coords": { "lat": 51.94, "lon": 1.27 } },
  { "name": "Horton General Hospital", "city": "Banbury", "coords": { "lat": 52.06, "lon": -1.32 } },
  { "name": "Kidderminster Hospital and Treatment Centre", "city": "Kidderminster", "coords": { "lat": 52.38, "lon": -2.23 } },
  { "name": "Louth County Hospital", "city": "Louth", "coords": { "lat": 53.36, "lon": -0.01 } },
  { "name": "Malvern Community Hospital", "city": "Malvern", "coords": { "lat": 52.1, "lon": -2.32 } },
  { "name": "New Queen Elizabeth II Hospital", "city": "Welwyn Garden City", "coords": { "lat": 51.8, "lon": -0.19 } },
  { "name": "Pershore Community Hospital", "city": "Pershore", "coords": { "lat": 52.11, "lon": -2.07 } },
  { "name": "Princess of Wales Hospital", "city": "Bridgend", "coords": { "lat": 51.5, "lon": -3.58 } },
  { "name": "Queen's Hospital Burton", "city": "Burton-on-Trent", "coords": { "lat": 52.81, "lon": -1.63 } },
  { "name": "Royal Victoria Infirmary", "city": "Newcastle upon Tyne", "coords": { "lat": 54.97, "lon": -1.62 } },
  { "name": "Rugby Hospital of St Cross", "city": "Rugby", "coords": { "lat": 52.37, "lon": -1.24 } },
  { "name": "South Molton Community Hospital", "city": "South Molton", "coords": { "lat": 51.01, "lon": -3.83 } },
  { "name": "St Michael's Hospital", "city": "Bristol", "coords": { "lat": 51.45, "lon": -2.6 } },
  { "name": "Tenbury Community Hospital", "city": "Tenbury Wells", "coords": { "lat": 52.26, "lon": -2.59 } },
  { "name": "The Northumbria Specialist Emergency Care Hospital", "city": "Cramlington", "coords": { "lat": 55.08, "lon": -1.58 } },
  { "name": "University Hospital of South Manchester", "city": "Manchester", "coords": { "lat": 53.39, "lon": -2.28 } },
  { "name": "Wansbeck General Hospital", "city": "Ashington", "coords": { "lat": 55.18, "lon": -1.58 } },
  { "name": "West Berkshire Community Hospital", "city": "Thatcham", "coords": { "lat": 51.4, "lon": -1.29 } },
  { "name": "Westwood Park Community Hospital", "city": "Bradford", "coords": { "lat": 53.8, "lon": -1.79 } },
  { "name": "Alder Hey Children's Hospital", "city": "Liverpool", "coords": { "lat": 53.42, "lon": -2.9 } },
  { "name": "Andover War Memorial Hospital", "city": "Andover", "coords": { "lat": 51.21, "lon": -1.47 } },
  { "name": "Ashford Hospital", "city": "Ashford", "coords": { "lat": 51.44, "lon": -0.47 } },
  { "name": "Airedale General Hospital", "city": "Keighley", "coords": { "lat": 53.89, "lon": -1.96 } },
  { "name": "Alnwick Infirmary", "city": "Alnwick", "coords": { "lat": 55.41, "lon": -1.7 } },
  { "name": "Altrincham General Hospital", "city": "Altrincham", "coords": { "lat": 53.38, "lon": -2.35 } },
  { "name": "Amersham Hospital", "city": "Amersham", "coords": { "lat": 51.67, "lon": -0.62 } },
  { "name": "Ashby and District Hospital", "city": "Ashby-de-la-Zouch", "coords": { "lat": 52.74, "lon": -1.47 } },
  { "name": "Ashfield Health and Wellbeing Centre", "city": "Kirkby-in-Ashfield", "coords": { "lat": 53.1, "lon": -1.24 } },
  { "name": "Ashton-in-Makerfield Clinic", "city": "Ashton-in-Makerfield", "coords": { "lat": 53.51, "lon": -2.64 } },
  { "name": "Atherleigh Park", "city": "Leigh", "coords": { "lat": 53.49, "lon": -2.5 } },
  { "name": "Axminster Hospital", "city": "Axminster", "coords": { "lat": 50.78, "lon": -2.99 } },
  { "name": "Banbury Hospital", "city": "Banbury", "coords": { "lat": 52.06, "lon": -1.32 } },
  { "name": "Barrow-in-Furness General Hospital", "city": "Barrow-in-Furness", "coords": { "lat": 54.13, "lon": -3.21 } },
  { "name": "Barton-under-Needwood Cottage Hospital", "city": "Barton-under-Needwood", "coords": { "lat": 52.76, "lon": -1.73 } },
  { "name": "Bexhill Hospital", "city": "Bexhill-on-Sea", "coords": { "lat": 50.85, "lon": 0.47 } },
  { "name": "Bideford Community Hospital", "city": "Bideford", "coords": { "lat": 51.01, "lon": -4.21 } },
  { "name": "Birch Hill Hospital", "city": "Rochdale", "coords": { "lat": 53.63, "lon": -2.13 } },
  { "name": "Birkenhead General Hospital", "city": "Birkenhead", "coords": { "lat": 53.39, "lon": -3.03 } },
  { "name": "Bishop's Castle Community Hospital", "city": "Bishop's Castle", "coords": { "lat": 52.49, "lon": -2.99 } },
  { "name": "Blaina and District Hospital", "city": "Blaina", "coords": { "lat": 51.77, "lon": -3.17 } },
  { "name": "Blyth Community Hospital", "city": "Blyth", "coords": { "lat": 55.12, "lon": -1.51 } },
  { "name": "Bodmin Hospital", "city": "Bodmin", "coords": { "lat": 50.46, "lon": -4.71 } },
  { "name": "Bolsover Hospital", "city": "Bolsover", "coords": { "lat": 53.23, "lon": -1.28 } },
  { "name": "Boston Pilgrim Hospital", "city": "Boston", "coords": { "lat": 52.98, "lon": -0.05 } },
  { "name": "Bourne Hospital", "city": "Bourne", "coords": { "lat": 52.76, "lon": -0.37 } },
  { "name": "Brackley Community Hospital", "city": "Brackley", "coords": { "lat": 52.03, "lon": -1.14 } },
  { "name": "Braintree Community Hospital", "city": "Braintree", "coords": { "lat": 51.88, "lon": 0.55 } },
  { "name": "Brentwood Community Hospital", "city": "Brentwood", "coords": { "lat": 51.62, "lon": 0.3 } },
  { "name": "Bridgnorth Hospital", "city": "Bridgnorth", "coords": { "lat": 52.53, "lon": -2.41 } },
  { "name": "Bridgwater Community Hospital", "city": "Bridgwater", "coords": { "lat": 51.12, "lon": -2.99 } },
  { "name": "Brighton General Hospital", "city": "Brighton", "coords": { "lat": 50.83, "lon": -0.11 } },
  { "name": "Brixham Hospital", "city": "Brixham", "coords": { "lat": 50.39, "lon": -3.52 } },
  { "name": "Bromsgrove Hospital", "city": "Bromsgrove", "coords": { "lat": 52.33, "lon": -2.05 } },
  { "name": "Bude Hospital", "city": "Bude", "coords": { "lat": 50.82, "lon": -4.54 } },
  { "name": "Burnham-on-Sea War Memorial Hospital", "city": "Burnham-on-Sea", "coords": { "lat": 51.23, "lon": -2.98 } },
  { "name": "Burton-on-Trent Hospital", "city": "Burton-on-Trent", "coords": { "lat": 52.81, "lon": -1.63 } },
  { "name": "Bury St Edmunds Hospital", "city": "Bury St Edmunds", "coords": { "lat": 52.24, "lon": 0.7 } },
  { "name": "Camborne Redruth Community Hospital", "city": "Redruth", "coords": { "lat": 50.23, "lon": -5.22 } },
  { "name": "Cannock Chase Hospital", "city": "Cannock", "coords": { "lat": 52.68, "lon": -2.02 } },
  { "name": "Canterbury Hospital", "city": "Canterbury", "coords": { "lat": 51.27, "lon": 1.09 } },
  { "name": "Chard Community Hospital", "city": "Chard", "coords": { "lat": 50.87, "lon": -2.96 } },
  { "name": "Cheadle Hospital", "city": "Cheadle", "coords": { "lat": 52.98, "lon": -1.98 } },
  { "name": "Chepstow Community Hospital", "city": "Chepstow", "coords": { "lat": 51.64, "lon": -2.67 } },
  { "name": "Chesham Hospital", "city": "Chesham", "coords": { "lat": 51.7, "lon": -0.61 } },
  { "name": "Cheshunt Community Hospital", "city": "Cheshunt", "coords": { "lat": 51.7, "lon": -0.03 } },
  { "name": "Chippenham Community Hospital", "city": "Chippenham", "coords": { "lat": 51.46, "lon": -2.11 } },
  { "name": "Cirencester Hospital", "city": "Cirencester", "coords": { "lat": 51.71, "lon": -1.96 } },
  { "name": "City of Coventry Health Centre", "city": "Coventry", "coords": { "lat": 52.4, "lon": -1.5 } },
  { "name": "Clitheroe Community Hospital", "city": "Clitheroe", "coords": { "lat": 53.87, "lon": -2.39 } },
  { "name": "Coalville Community Hospital", "city": "Coalville", "coords": { "lat": 52.72, "lon": -1.36 } },
  { "name": "Cobham Cottage Hospital", "city": "Cobham", "coords": { "lat": 51.33, "lon": -0.41 } },
  { "name": "Cockermouth Cottage Hospital", "city": "Cockermouth", "coords": { "lat": 54.66, "lon": -3.36 } },
  { "name": "Congleton War Memorial Hospital", "city": "Congleton", "coords": { "lat": 53.16, "lon": -2.21 } },
  { "name": "Corby Community Hospital", "city": "Corby", "coords": { "lat": 52.49, "lon": -0.69 } },
  { "name": "Crediton Community Hospital", "city": "Crediton", "coords": { "lat": 50.79, "lon": -3.65 } },
  { "name": "Crewkerne Hospital", "city": "Crewkerne", "coords": { "lat": 50.88, "lon": -2.79 } },
  { "name": "Cromer and District Hospital", "city": "Cromer", "coords": { "lat": 52.93, "lon": 1.3 } },
  { "name": "Crowborough War Memorial Hospital", "city": "Crowborough", "coords": { "lat": 51.05, "lon": 0.16 } },
  { "name": "Dalton Community Hospital", "city": "Dalton-in-Furness", "coords": { "lat": 54.15, "lon": -3.18 } },
  { "name": "Danetre Hospital", "city": "Daventry", "coords": { "lat": 52.25, "lon": -1.16 } },
  { "name": "Dartmouth and Kingswear Hospital", "city": "Dartmouth", "coords": { "lat": 50.35, "lon": -3.58 } },
  { "name": "Dawlish Hospital", "city": "Dawlish", "coords": { "lat": 50.58, "lon": -3.46 } },
  { "name": "Deal Victoria War Memorial Hospital", "city": "Deal", "coords": { "lat": 51.22, "lon": 1.4 } },
  { "name": "Denbigh Community Hospital", "city": "Denbigh", "coords": { "lat": 53.18, "lon": -3.41 } },
  { "name": "Devizes Community Hospital", "city": "Devizes", "coords": { "lat": 51.35, "lon": -1.99 } },
  { "name": "Didcot Community Hospital", "city": "Didcot", "coords": { "lat": 51.6, "lon": -1.24 } },
  { "name": "Dolgellau and Barmouth District Hospital", "city": "Dolgellau", "coords": { "lat": 52.74, "lon": -3.88 } },
  { "name": "Dover Hospital", "city": "Dover", "coords": { "lat": 51.13, "lon": 1.29 } },
  { "name": "Driffield Hospital", "city": "Driffield", "coords": { "lat": 54.0, "lon": -0.43 } },
  { "name": "Droitwich Spa Hospital", "city": "Droitwich Spa", "coords": { "lat": 52.26, "lon": -2.15 } },
  { "name": "Dunstable Hospital", "city": "Dunstable", "coords": { "lat": 51.88, "lon": -0.52 } },
  { "name": "Durham Hospital", "city": "Durham", "coords": { "lat": 54.77, "lon": -1.57 } },
  { "name": "East Grinstead Hospital", "city": "East Grinstead", "coords": { "lat": 51.12, "lon": -0.01 } },
  { "name": "East Ham Memorial Hospital", "city": "London", "coords": { "lat": 51.53, "lon": 0.05 } },
  { "name": "East Riding Community Hospital", "city": "Beverley", "coords": { "lat": 53.84, "lon": -0.42 } },
  { "name": "Edenbridge and District War Memorial Hospital", "city": "Edenbridge", "coords": { "lat": 51.2, "lon": 0.07 } },
  { "name": "Edgware Community Hospital", "city": "Edgware", "coords": { "lat": 51.61, "lon": -0.27 } },
  { "name": "Ely Hospital", "city": "Ely", "coords": { "lat": 52.4, "lon": 0.26 } },
  { "name": "Emsworth Victoria Cottage Hospital", "city": "Emsworth", "coords": { "lat": 50.84, "lon": -0.93 } },
  { "name": "Exeter Community Hospital", "city": "Exeter", "coords": { "lat": 50.72, "lon": -3.53 } },
  { "name": "Exmouth Hospital", "city": "Exmouth", "coords": { "lat": 50.62, "lon": -3.41 } },
  { "name": "Falmouth Hospital", "city": "Falmouth", "coords": { "lat": 50.15, "lon": -5.06 } },
  { "name": "Farnham Hospital", "city": "Farnham", "coords": { "lat": 51.21, "lon": -0.8 } },
  { "name": "Faversham Cottage Hospital", "city": "Faversham", "coords": { "lat": 51.31, "lon": 0.89 } },
  { "name": "Felixstowe Community Hospital", "city": "Felixstowe", "coords": { "lat": 51.96, "lon": 1.35 } },
  { "name": "Fleetwood Hospital", "city": "Fleetwood", "coords": { "lat": 53.92, "lon": -3.01 } },
  { "name": "Folkestone Hospital", "city": "Folkestone", "coords": { "lat": 51.08, "lon": 1.17 } },
  { "name": "Fordingbridge Hospital", "city": "Fordingbridge", "coords": { "lat": 50.92, "lon": -1.79 } },
  { "name": "Frome Community Hospital", "city": "Frome", "coords": { "lat": 51.23, "lon": -2.32 } },
  { "name": "Gainsborough John Coupland Hospital", "city": "Gainsborough", "coords": { "lat": 53.4, "lon": -0.77 } },
  { "name": "Garstang Community Hospital", "city": "Garstang", "coords": { "lat": 53.9, "lon": -2.77 } },
  { "name": "Glastonbury Community Hospital", "city": "Glastonbury", "coords": { "lat": 51.14, "lon": -2.71 } },
  { "name": "Gosport War Memorial Hospital", "city": "Gosport", "coords": { "lat": 50.79, "lon": -1.13 } },
  { "name": "Gravesend Community Hospital", "city": "Gravesend", "coords": { "lat": 51.44, "lon": 0.37 } },
  { "name": "Grays Hospital", "city": "Grays", "coords": { "lat": 51.47, "lon": 0.32 } },
  { "name": "Great Yarmouth Hospital", "city": "Great Yarmouth", "coords": { "lat": 52.6, "lon": 1.73 } },
  { "name": "Haltwhistle War Memorial Hospital", "city": "Haltwhistle", "coords": { "lat": 54.97, "lon": -2.45 } },
  { "name": "Haslemere and District Community Hospital", "city": "Haslemere", "coords": { "lat": 51.08, "lon": -0.71 } },
  { "name": "Havant War Memorial Hospital", "city": "Havant", "coords": { "lat": 50.85, "lon": -0.98 } },
  { "name": "Hawkhurst Cottage Hospital", "city": "Hawkhurst", "coords": { "lat": 51.04, "lon": 0.51 } },
  { "name": "Hayle Hospital", "city": "Hayle", "coords": { "lat": 50.18, "lon": -5.42 } },
  { "name": "Haywards Heath Hospital", "city": "Haywards Heath", "coords": { "lat": 51.0, "lon": -0.1 } },
  { "name": "Heanor Memorial Hospital", "city": "Heanor", "coords": { "lat": 53.01, "lon": -1.35 } },
  { "name": "Heathlands Hospital", "city": "Bracknell", "coords": { "lat": 51.41, "lon": -0.75 } },
  { "name": "Helston Community Hospital", "city": "Helston", "coords": { "lat": 50.1, "lon": -5.27 } },
  { "name": "Hemel Hempstead Hospital", "city": "Hemel Hempstead", "coords": { "lat": 51.75, "lon": -0.47 } },
  { "name": "Henley-on-Thames War Memorial Hospital", "city": "Henley-on-Thames", "coords": { "lat": 51.53, "lon": -0.9 } },
  { "name": "Hertford County Hospital", "city": "Hertford", "coords": { "lat": 51.79, "lon": -0.07 } },
  { "name": "Hexham General Hospital", "city": "Hexham", "coords": { "lat": 54.97, "lon": -2.1 } },
  { "name": "High Wycombe Hospital", "city": "High Wycombe", "coords": { "lat": 51.62, "lon": -0.75 } },
  { "name": "Hinckley and Bosworth Community Hospital", "city": "Hinckley", "coords": { "lat": 52.54, "lon": -1.37 } },
  { "name": "Holsworthy Community Hospital", "city": "Holsworthy", "coords": { "lat": 50.81, "lon": -4.34 } },
  { "name": "Honiton Hospital", "city": "Honiton", "coords": { "lat": 50.8, "lon": -3.19 } },
  { "name": "Horncastle War Memorial Hospital", "city": "Horncastle", "coords": { "lat": 53.21, "lon": -0.11 } },
  { "name": "Hornsea Cottage Hospital", "city": "Hornsea", "coords": { "lat": 53.91, "lon": -0.16 } },
  { "name": "Horsham Hospital", "city": "Horsham", "coords": { "lat": 51.06, "lon": -0.32 } },
  { "name": "Ilkeston Community Hospital", "city": "Ilkeston", "coords": { "lat": 52.97, "lon": -1.3 } },
  { "name": "Ilminster Hospital", "city": "Ilminster", "coords": { "lat": 50.92, "lon": -2.91 } },
  { "name": "Inverclyde Royal Hospital", "city": "Greenock", "coords": { "lat": 55.94, "lon": -4.72 } },
  { "name": "Isebrook Hospital", "city": "Wellingborough", "coords": { "lat": 52.3, "lon": -0.69 } },
  { "name": "Ivybridge Hospital", "city": "Ivybridge", "coords": { "lat": 50.39, "lon": -3.91 } },
  { "name": "Johnson Hospital", "city": "Spalding", "coords": { "lat": 52.78, "lon": -0.15 } },
  { "name": "Keighley Hospital", "city": "Keighley", "coords": { "lat": 53.86, "lon": -1.9 } },
  { "name": "Kendal Hospital", "city": "Kendal", "coords": { "lat": 54.32, "lon": -2.74 } },
  { "name": "Keswick Hospital", "city": "Keswick", "coords": { "lat": 54.6, "lon": -3.13 } },
  { "name": "Keynsham Health Centre", "city": "Keynsham", "coords": { "lat": 51.41, "lon": -2.49 } },
  { "name": "Kidderminster Hospital", "city": "Kidderminster", "coords": { "lat": 52.38, "lon": -2.23 } },
  { "name": "Kingsbridge Hospital", "city": "Kingsbridge", "coords": { "lat": 50.28, "lon": -3.77 } },
  { "name": "Kirkby Stephen Community Hospital", "city": "Kirkby Stephen", "coords": { "lat": 54.47, "lon": -2.34 } },
  { "name": "Launceston Hospital", "city": "Launceston", "coords": { "lat": 50.63, "lon": -4.35 } },
  { "name": "Leamington Spa Hospital", "city": "Leamington Spa", "coords": { "lat": 52.29, "lon": -1.53 } },
  { "name": "Ledbury Community Hospital", "city": "Ledbury", "coords": { "lat": 52.03, "lon": -2.42 } },
  { "name": "Leek Moorlands Hospital", "city": "Leek", "coords": { "lat": 53.1, "lon": -2.02 } },
  { "name": "Lewes Victoria Hospital", "city": "Lewes", "coords": { "lat": 50.87, "lon": 0.01 } },
  { "name": "Lichfield Victoria Hospital", "city": "Lichfield", "coords": { "lat": 52.68, "lon": -1.82 } },
  { "name": "Liskeard Community Hospital", "city": "Liskeard", "coords": { "lat": 50.45, "lon": -4.46 } },
  { "name": "Littlehampton Hospital", "city": "Littlehampton", "coords": { "lat": 50.8, "lon": -0.54 } },
  { "name": "Llandudno General Hospital", "city": "Llandudno", "coords": { "lat": 53.32, "lon": -3.82 } },
  { "name": "Llanelli Hospital", "city": "Llanelli", "coords": { "lat": 51.68, "lon": -4.16 } },
  { "name": "Longton Cottage Hospital", "city": "Stoke-on-Trent", "coords": { "lat": 52.98, "lon": -2.12 } },
  { "name": "Loughborough Hospital", "city": "Loughborough", "coords": { "lat": 52.77, "lon": -1.2 } },
  { "name": "Ludlow Community Hospital", "city": "Ludlow", "coords": { "lat": 52.36, "lon": -2.71 } },
  { "name": "Lydney and District Hospital", "city": "Lydney", "coords": { "lat": 51.72, "lon": -2.52 } },
  { "name": "Lyme Regis Hospital", "city": "Lyme Regis", "coords": { "lat": 50.72, "lon": -2.93 } },
  { "name": "Lytham Hospital", "city": "Lytham St Annes", "coords": { "lat": 53.74, "lon": -2.96 } },
  { "name": "Mablethorpe Hospital", "city": "Mablethorpe", "coords": { "lat": 53.34, "lon": 0.26 } },
  { "name": "Malmesbury Community Hospital", "city": "Malmesbury", "coords": { "lat": 51.58, "lon": -2.09 } },
  { "name": "Malton Hospital", "city": "Malton", "coords": { "lat": 54.13, "lon": -0.79 } },
  { "name": "Marlow Community Hospital", "city": "Marlow", "coords": { "lat": 51.57, "lon": -0.77 } },
  { "name": "Maryport Hospital", "city": "Maryport", "coords": { "lat": 54.71, "lon": -3.49 } },
  { "name": "Matlock Hospital", "city": "Matlock", "coords": { "lat": 53.13, "lon": -1.55 } },
  { "name": "Melksham Community Hospital", "city": "Melksham", "coords": { "lat": 51.37, "lon": -2.13 } },
  { "name": "Melton Mowbray Hospital", "city": "Melton Mowbray", "coords": { "lat": 52.76, "lon": -0.88 } },
  { "name": "Midhurst Community Hospital", "city": "Midhurst", "coords": { "lat": 50.98, "lon": -0.74 } },
  { "name": "Mildmay Mission Hospital", "city": "London", "coords": { "lat": 51.54, "lon": -0.07 } },
  { "name": "Millom Hospital", "city": "Millom", "coords": { "lat": 54.2, "lon": -3.27 } },
  { "name": "Minehead Community Hospital", "city": "Minehead", "coords": { "lat": 51.2, "lon": -3.47 } },
  { "name": "Mold Community Hospital", "city": "Mold", "coords": { "lat": 53.16, "lon": -3.14 } },
  { "name": "Monmouth Hospital", "city": "Monmouth", "coords": { "lat": 51.81, "lon": -2.71 } },
  { "name": "Morecambe Hospital", "city": "Morecambe", "coords": { "lat": 54.07, "lon": -2.87 } },
  { "name": "Moreton-in-Marsh Hospital", "city": "Moreton-in-Marsh", "coords": { "lat": 51.99, "lon": -1.7 } },
  { "name": "Nailsea Health Centre", "city": "Nailsea", "coords": { "lat": 51.43, "lon": -2.76 } },
  { "name": "Nantwich Hospital", "city": "Nantwich", "coords": { "lat": 53.06, "lon": -2.52 } },
  { "name": "Neath Port Talbot Hospital", "city": "Port Talbot", "coords": { "lat": 51.6, "lon": -3.78 } },
  { "name": "Nelson Hospital", "city": "London", "coords": { "lat": 51.41, "lon": -0.19 } },
  { "name": "New Mills Hospital", "city": "New Mills", "coords": { "lat": 53.36, "lon": -2.0 } },
  { "name": "New Romney Hospital", "city": "New Romney", "coords": { "lat": 50.98, "lon": 0.94 } },
  { "name": "Newbury Hospital", "city": "Newbury", "coords": { "lat": 51.4, "lon": -1.32 } },
  { "name": "Newcastle-under-Lyme Hospital", "city": "Newcastle-under-Lyme", "coords": { "lat": 53.0, "lon": -2.22 } },
  { "name": "Newent Community Hospital", "city": "Newent", "coords": { "lat": 51.93, "lon": -2.4 } },
  { "name": "Newhaven Downs Hospital", "city": "Newhaven", "coords": { "lat": 50.79, "lon": 0.05 } },
  { "name": "Newholme Hospital", "city": "Bakewell", "coords": { "lat": 53.21, "lon": -1.67 } },
  { "name": "Newquay Hospital", "city": "Newquay", "coords": { "lat": 50.41, "lon": -5.07 } },
  { "name": "Newton Abbot Hospital", "city": "Newton Abbot", "coords": { "lat": 50.53, "lon": -3.61 } },
  { "name": "North Walsham Hospital", "city": "North Walsham", "coords": { "lat": 52.82, "lon": 1.38 } },
  { "name": "Northallerton Hospital", "city": "Northallerton", "coords": { "lat": 54.33, "lon": -1.43 } },
  { "name": "Northwich Victoria Infirmary", "city": "Northwich", "coords": { "lat": 53.26, "lon": -2.51 } },
  { "name": "Okehampton Community Hospital", "city": "Okehampton", "coords": { "lat": 50.73, "lon": -4.0 } },
  { "name": "Ongar War Memorial Hospital", "city": "Ongar", "coords": { "lat": 51.7, "lon": 0.24 } },
  { "name": "Orsett Hospital", "city": "Grays", "coords": { "lat": 51.5, "lon": 0.35 } },
  { "name": "Oswestry Hospital", "city": "Oswestry", "coords": { "lat": 52.85, "lon": -3.05 } },
  { "name": "Ottery St Mary Hospital", "city": "Ottery St Mary", "coords": { "lat": 50.75, "lon": -3.27 } },
  { "name": "Oundle Hospital", "city": "Oundle", "coords": { "lat": 52.48, "lon": -0.46 } },
  { "name": "Paignton Hospital", "city": "Paignton", "coords": { "lat": 50.43, "lon": -3.56 } },
  { "name": "Peacehaven Community Hospital", "city": "Peacehaven", "coords": { "lat": 50.79, "lon": 0.0 } },
  { "name": "Penrith Hospital", "city": "Penrith", "coords": { "lat": 54.66, "lon": -2.75 } },
  { "name": "Penzance Hospital", "city": "Penzance", "coords": { "lat": 50.11, "lon": -5.53 } },
  { "name": "Pershore Hospital", "city": "Pershore", "coords": { "lat": 52.11, "lon": -2.07 } },
  { "name": "Petersfield Community Hospital", "city": "Petersfield", "coords": { "lat": 51.0, "lon": -0.93 } },
  { "name": "Pickering Hospital", "city": "Pickering", "coords": { "lat": 54.24, "lon": -0.77 } },
  { "name": "Plympton Hospital", "city": "Plymouth", "coords": { "lat": 50.38, "lon": -4.05 } },
  { "name": "Portishead Health Centre", "city": "Portishead", "coords": { "lat": 51.48, "lon": -2.76 } },
  { "name": "Portland Hospital", "city": "Portland", "coords": { "lat": 50.55, "lon": -2.44 } },
  { "name": "Potters Bar Hospital", "city": "Potters Bar", "coords": { "lat": 51.69, "lon": -0.18 } },
  { "name": "Prestatyn Community Hospital", "city": "Prestatyn", "coords": { "lat": 53.33, "lon": -3.4 } },
  { "name": "Princes Risborough Hospital", "city": "Princes Risborough", "coords": { "lat": 51.72, "lon": -0.83 } },
  { "name": "Princess of Wales Community Hospital", "city": "Bromsgrove", "coords": { "lat": 52.33, "lon": -2.05 } },
  { "name": "Pwllheli Hospital", "city": "Pwllheli", "coords": { "lat": 52.88, "lon": -4.41 } },
  { "name": "Queen Victoria Hospital", "city": "East Grinstead", "coords": { "lat": 51.12, "lon": -0.01 } },
  { "name": "Queen Victoria Memorial Hospital", "city": "Herne Bay", "coords": { "lat": 51.37, "lon": 1.12 } },
  { "name": "Radcliffe Infirmary", "city": "Oxford", "coords": { "lat": 51.75, "lon": -1.25 } },
  { "name": "Ramsey and District Cottage Hospital", "city": "Ramsey", "coords": { "lat": 52.44, "lon": -0.11 } },
  { "name": "Redcar Primary Care Hospital", "city": "Redcar", "coords": { "lat": 54.61, "lon": -1.07 } },
  { "name": "Redhill Hospital", "city": "Redhill", "coords": { "lat": 51.23, "lon": -0.13 } },
  { "name": "Reigate Hospital", "city": "Reigate", "coords": { "lat": 51.23, "lon": -0.2 } },
  { "name": "Ripley Hospital", "city": "Ripley", "coords": { "lat": 53.03, "lon": -1.4 } },
  { "name": "Ripon Community Hospital", "city": "Ripon", "coords": { "lat": 54.13, "lon": -1.52 } },
  { "name": "Rochford Hospital", "city": "Rochford", "coords": { "lat": 51.58, "lon": 0.7 } },
  { "name": "Ross-on-Wye Community Hospital", "city": "Ross-on-Wye", "coords": { "lat": 51.91, "lon": -2.58 } },
  { "name": "Rothbury Community Hospital", "city": "Rothbury", "coords": { "lat": 55.3, "lon": -1.91 } },
  { "name": "Royston Hospital", "city": "Royston", "coords": { "lat": 52.04, "lon": -0.02 } },
  { "name": "Ruthin Community Hospital", "city": "Ruthin", "coords": { "lat": 53.11, "lon": -3.3 } },
  { "name": "Rye, Winchelsea and District Memorial Hospital", "city": "Rye", "coords": { "lat": 50.95, "lon": 0.73 } },
  { "name": "Saffron Walden Community Hospital", "city": "Saffron Walden", "coords": { "lat": 52.02, "lon": 0.24 } },
  { "name": "Salcombe Hospital", "city": "Salcombe", "coords": { "lat": 50.23, "lon": -3.76 } },
  { "name": "Sandbach War Memorial Hospital", "city": "Sandbach", "coords": { "lat": 53.14, "lon": -2.36 } },
  { "name": "Sandown Hospital", "city": "Sandown", "coords": { "lat": 50.65, "lon": -1.15 } },
  { "name": "Savernake Hospital", "city": "Marlborough", "coords": { "lat": 51.41, "lon": -1.72 } },
  { "name": "Seaford Hospital", "city": "Seaford", "coords": { "lat": 50.77, "lon": 0.1 } },
  { "name": "Sedgefield Community Hospital", "city": "Sedgefield", "coords": { "lat": 54.65, "lon": -1.44 } },
  { "name": "Sevenoaks Hospital", "city": "Sevenoaks", "coords": { "lat": 51.27, "lon": 0.19 } },
  { "name": "Shaftesbury Hospital", "city": "Shaftesbury", "coords": { "lat": 51.0, "lon": -2.2 } },
  { "name": "Sheerness Hospital", "city": "Sheerness", "coords": { "lat": 51.44, "lon": 0.76 } },
  { "name": "Shepton Mallet Community Hospital", "city": "Shepton Mallet", "coords": { "lat": 51.19, "lon": -2.54 } },
  { "name": "Sherborne Hospital", "city": "Sherborne", "coords": { "lat": 50.95, "lon": -2.51 } },
  { "name": "Shipston-on-Stour Hospital", "city": "Shipston-on-Stour", "coords": { "lat": 52.06, "lon": -1.62 } },
  { "name": "Shotley Bridge Hospital", "city": "Shotley Bridge", "coords": { "lat": 54.87, "lon": -1.83 } },
  { "name": "Shrewsbury Hospital", "city": "Shrewsbury", "coords": { "lat": 52.7, "lon": -2.75 } },
  { "name": "Sidmouth Hospital", "city": "Sidmouth", "coords": { "lat": 50.68, "lon": -3.23 } },
  { "name": "Sittingbourne Memorial Hospital", "city": "Sittingbourne", "coords": { "lat": 51.34, "lon": 0.73 } },
  { "name": "Skegness and District General Hospital", "city": "Skegness", "coords": { "lat": 53.14, "lon": 0.34 } },
  { "name": "Skipton General Hospital", "city": "Skipton", "coords": { "lat": 53.96, "lon": -2.01 } },
  { "name": "Sleaford Hospital", "city": "Sleaford", "coords": { "lat": 52.99, "lon": -0.4 } },
  { "name": "South Hams Hospital", "city": "Kingsbridge", "coords": { "lat": 50.28, "lon": -3.77 } },
  { "name": "South Petherton Hospital", "city": "South Petherton", "coords": { "lat": 50.95, "lon": -2.8 } },
  { "name": "Southwold and District Hospital", "city": "Southwold", "coords": { "lat": 52.32, "lon": 1.68 } },
  { "name": "Spalding Hospital", "city": "Spalding", "coords": { "lat": 52.78, "lon": -0.15 } },
  { "name": "St Albans City Hospital", "city": "St Albans", "coords": { "lat": 51.75, "lon": -0.34 } },
  { "name": "St Andrews Hospital", "city": "Northampton", "coords": { "lat": 52.23, "lon": -0.88 } },
  { "name": "St Austell Community Hospital", "city": "St Austell", "coords": { "lat": 50.33, "lon": -4.79 } },
  { "name": "St Barnabas Hospital", "city": "Saltash", "coords": { "lat": 50.4, "lon": -4.2 } },
  { "name": "St Ives Hospital", "city": "St Ives", "coords": { "lat": 50.21, "lon": -5.48 } },
  { "name": "St Leonard's Hospital", "city": "Sudbury", "coords": { "lat": 52.03, "lon": 0.73 } },
  { "name": "St Luke's Hospital", "city": "Bradford", "coords": { "lat": 53.79, "lon": -1.75 } },
  { "name": "St Margaret's Hospital", "city": "Epping", "coords": { "lat": 51.69, "lon": 0.11 } },
  { "name": "St Mary's Hospital, Isles of Scilly", "city": "St Mary's", "coords": { "lat": 49.91, "lon": -6.31 } },
  { "name": "St Mary's Hospital, Kettering", "city": "Kettering", "coords": { "lat": 52.4, "lon": -0.73 } },
  { "name": "St Mary's Hospital, Newport", "city": "Newport", "coords": { "lat": 50.7, "lon": -1.29 } },
  { "name": "St Michael's Hospital, Hayle", "city": "Hayle", "coords": { "lat": 50.18, "lon": -5.42 } },
  { "name": "Stamford and Rutland Hospital", "city": "Stamford", "coords": { "lat": 52.65, "lon": -0.47 } },
  { "name": "Stonehouse Hospital", "city": "Stonehouse", "coords": { "lat": 51.74, "lon": -2.28 } },
  { "name": "Stow-on-the-Wold Hospital", "city": "Stow-on-the-Wold", "coords": { "lat": 51.92, "lon": -1.72 } },
  { "name": "Stratford-upon-Avon Hospital", "city": "Stratford-upon-Avon", "coords": { "lat": 52.19, "lon": -1.7 } },
  { "name": "Stratton Hospital", "city": "Bude", "coords": { "lat": 50.82, "lon": -4.54 } },
  { "name": "Sudbury Hospital", "city": "Sudbury", "coords": { "lat": 52.03, "lon": 0.73 } },
  { "name": "Swanage Hospital", "city": "Swanage", "coords": { "lat": 50.61, "lon": -1.95 } },
  { "name": "Swindon Hospital", "city": "Swindon", "coords": { "lat": 51.55, "lon": -1.73 } },
  { "name": "Tavistock Hospital", "city": "Tavistock", "coords": { "lat": 50.55, "lon": -4.14 } },
  { "name": "Teignmouth Hospital", "city": "Teignmouth", "coords": { "lat": 50.54, "lon": -3.49 } },
  { "name": "Tewkesbury Hospital", "city": "Tewkesbury", "coords": { "lat": 51.99, "lon": -2.15 } },
  { "name": "Thame Community Hospital", "city": "Thame", "coords": { "lat": 51.74, "lon": -0.97 } },
  { "name": "Thetford Cottage Hospital", "city": "Thetford", "coords": { "lat": 52.41, "lon": 0.74 } },
  { "name": "Thirsk Hospital", "city": "Thirsk", "coords": { "lat": 54.23, "lon": -1.34 } },
  { "name": "Thornbury Hospital", "city": "Thornbury", "coords": { "lat": 51.61, "lon": -2.52 } },
  { "name": "Tiverton and District Hospital", "city": "Tiverton", "coords": { "lat": 50.9, "lon": -3.48 } },
  { "name": "Tonbridge Cottage Hospital", "city": "Tonbridge", "coords": { "lat": 51.19, "lon": 0.27 } },
  { "name": "Totnes Community Hospital", "city": "Totnes", "coords": { "lat": 50.43, "lon": -3.68 } },
  { "name": "Trowbridge Community Hospital", "city": "Trowbridge", "coords": { "lat": 51.32, "lon": -2.2 } },
  { "name": "Ulverston Community Health Centre", "city": "Ulverston", "coords": { "lat": 54.19, "lon": -3.09 } },
  { "name": "Upton Hospital", "city": "Slough", "coords": { "lat": 51.5, "lon": -0.59 } },
  { "name": "Uckfield Community Hospital", "city": "Uckfield", "coords": { "lat": 50.97, "lon": 0.09 } },
  { "name": "Vale Community Hospital", "city": "Dursley", "coords": { "lat": 51.68, "lon": -2.35 } },
  { "name": "Ventnor Hospital", "city": "Ventnor", "coords": { "lat": 50.59, "lon": -1.2 } },
  { "name": "Victoria Central Hospital", "city": "Wallasey", "coords": { "lat": 53.41, "lon": -3.05 } },
  { "name": "Victoria Hospital, Deal", "city": "Deal", "coords": { "lat": 51.22, "lon": 1.4 } },
  { "name": "Victoria Hospital, Lichfield", "city": "Lichfield", "coords": { "lat": 52.68, "lon": -1.82 } },
  { "name": "Victoria Hospital, Mansfield", "city": "Mansfield", "coords": { "lat": 53.14, "lon": -1.19 } },
  { "name": "Victoria Hospital, Romford", "city": "Romford", "coords": { "lat": 51.57, "lon": 0.18 } },
  { "name": "Wallingford Community Hospital", "city": "Wallingford", "coords": { "lat": 51.6, "lon": -1.12 } },
  { "name": "Wantage Community Hospital", "city": "Wantage", "coords": { "lat": 51.58, "lon": -1.42 } },
  { "name": "Warminster Community Hospital", "city": "Warminster", "coords": { "lat": 51.2, "lon": -2.18 } },
  { "name": "Watlington and District Hospital", "city": "Watlington", "coords": { "lat": 51.64, "lon": -1.0 } },
  { "name": "Welwyn Garden City Hospital", "city": "Welwyn Garden City", "coords": { "lat": 51.8, "lon": -0.19 } },
  { "name": "West Berkshire Hospital", "city": "Newbury", "coords": { "lat": 51.4, "lon": -1.32 } },
  { "name": "West Cornwall Hospital", "city": "Penzance", "coords": { "lat": 50.11, "lon": -5.53 } },
  { "name": "West Mendip Hospital", "city": "Glastonbury", "coords": { "lat": 51.14, "lon": -2.71 } },
  { "name": "Westbury Hospital", "city": "Westbury", "coords": { "lat": 51.26, "lon": -2.18 } },
  { "name": "Westerland Hospital", "city": "Paignton", "coords": { "lat": 50.43, "lon": -3.56 } },
  { "name": "Weybridge Community Hospital", "city": "Weybridge", "coords": { "lat": 51.37, "lon": -0.45 } },
  { "name": "Whitby Community Hospital", "city": "Whitby", "coords": { "lat": 54.48, "lon": -0.62 } },
  { "name": "Whitchurch Community Hospital", "city": "Whitchurch", "coords": { "lat": 52.96, "lon": -2.68 } },
  { "name": "Whitehaven Hospital", "city": "Whitehaven", "coords": { "lat": 54.54, "lon": -3.58 } },
  { "name": "Whitstable and Tankerton Hospital", "city": "Whitstable", "coords": { "lat": 51.36, "lon": 1.02 } },
  { "name": "Whitworth Hospital", "city": "Matlock", "coords": { "lat": 53.13, "lon": -1.55 } },
  { "name": "Wigton Hospital", "city": "Wigton", "coords": { "lat": 54.82, "lon": -3.15 } },
  { "name": "Williton and District Hospital", "city": "Williton", "coords": { "lat": 51.16, "lon": -3.31 } },
  { "name": "Wincanton Community Hospital", "city": "Wincanton", "coords": { "lat": 51.05, "lon": -2.41 } },
  { "name": "Windsor Hospital", "city": "Windsor", "coords": { "lat": 51.48, "lon": -0.6 } },
  { "name": "Winsford Hospital", "city": "Winsford", "coords": { "lat": 53.19, "lon": -2.52 } },
  { "name": "Wisbech Hospital", "city": "Wisbech", "coords": { "lat": 52.66, "lon": 0.16 } },
  { "name": "Witney Community Hospital", "city": "Witney", "coords": { "lat": 51.78, "lon": -1.48 } },
  { "name": "Wokingham Hospital", "city": "Wokingham", "coords": { "lat": 51.41, "lon": -0.83 } },
  { "name": "Workington Hospital", "city": "Workington", "coords": { "lat": 54.64, "lon": -3.54 } },
  { "name": "Wotton Lawn Hospital", "city": "Gloucester", "coords": { "lat": 51.86, "lon": -2.26 } },
  { "name": "Wymondham Health Centre", "city": "Wymondham", "coords": { "lat": 52.57, "lon": 1.11 } },
  { "name": "Yate West Gate Centre", "city": "Yate", "coords": { "lat": 51.54, "lon": -2.41 } },
  { "name": "Yatton Health Centre", "city": "Yatton", "coords": { "lat": 51.38, "lon": -2.82 } }
]
